stamp:
  sec: 178
  nanosec: 800000000
control_time:
  sec: 0
  nanosec: 0
lateral:
  stamp:
    sec: 178
    nanosec: 800000000
  control_time:
    sec: 0
    nanosec: 0
  steering_tire_angle: -0.19850759208202362
  steering_tire_rotation_rate: -0.6133701205253601
  is_defined_steering_tire_rotation_rate: false
longitudinal:
  stamp:
    sec: 178
    nanosec: 800000000
  control_time:
    sec: 0
    nanosec: 0
  velocity: 0.0
  acceleration: -3.4000000953674316
  jerk: 0.0
  is_defined_acceleration: false
  is_defined_jerk: false
---
stamp:
  sec: 178
  nanosec: 970000000
control_time:
  sec: 0
  nanosec: 0
lateral:
  stamp:
    sec: 178
    nanosec: 970000000
  control_time:
    sec: 0
    nanosec: 0
  steering_tire_angle: -0.19850759208202362
  steering_tire_rotation_rate: -0.6133701205253601
  is_defined_steering_tire_rotation_rate: false
longitudinal:
  stamp:
    sec: 178
    nanosec: 970000000
  control_time:
    sec: 0
    nanosec: 0
  velocity: 0.0
  acceleration: -3.4000000953674316
  jerk: 0.0
  is_defined_acceleration: false
  is_defined_jerk: false
---
stamp:
  sec: 179
  nanosec: 100000000
control_time:
  sec: 0
  nanosec: 0
lateral:
  stamp:
    sec: 179
    nanosec: 100000000
  control_time:
    sec: 0
    nanosec: 0
  steering_tire_angle: -0.19850759208202362
  steering_tire_rotation_rate: -0.6133701205253601
  is_defined_steering_tire_rotation_rate: false
longitudinal:
  stamp:
    sec: 179
    nanosec: 100000000
  control_time:
    sec: 0
    nanosec: 0
  velocity: 0.0
  acceleration: -3.4000000953674316
  jerk: 0.0
  is_defined_acceleration: false
  is_defined_jerk: false
---
stamp:
  sec: 179
  nanosec: 250000000
control_time:
  sec: 0
  nanosec: 0
lateral:
  stamp:
    sec: 179
    nanosec: 250000000
  control_time:
    sec: 0
    nanosec: 0
  steering_tire_angle: -0.19850759208202362
  steering_tire_rotation_rate: -0.6133701205253601
  is_defined_steering_tire_rotation_rate: false
longitudinal:
  stamp:
    sec: 179
    nanosec: 250000000
  control_time:
    sec: 0
    nanosec: 0
  velocity: 0.0
  acceleration: -3.4000000953674316
  jerk: 0.0
  is_defined_acceleration: false
  is_defined_jerk: false
---
stamp:
  sec: 179
  nanosec: 400000000
control_time:
  sec: 0
  nanosec: 0
lateral:
  stamp:
    sec: 179
    nanosec: 400000000
  control_time:
    sec: 0
    nanosec: 0
  steering_tire_angle: -0.19850759208202362
  steering_tire_rotation_rate: -0.6133701205253601
  is_defined_steering_tire_rotation_rate: false
longitudinal:
  stamp:
    sec: 179
    nanosec: 400000000
  control_time:
    sec: 0
    nanosec: 0
  velocity: 0.0
  acceleration: -3.4000000953674316
  jerk: 0.0
  is_defined_acceleration: false
  is_defined_jerk: false
---
stamp:
  sec: 179
  nanosec: 550000000
control_time:
  sec: 0
  nanosec: 0
lateral:
  stamp:
    sec: 179
    nanosec: 550000000
  control_time:
    sec: 0
    nanosec: 0
  steering_tire_angle: -0.19850759208202362
  steering_tire_rotation_rate: -0.6133701205253601
  is_defined_steering_tire_rotation_rate: false
longitudinal:
  stamp:
    sec: 179
    nanosec: 550000000
  control_time:
    sec: 0
    nanosec: 0
  velocity: 0.0
  acceleration: -3.4000000953674316
  jerk: 0.0
  is_defined_acceleration: false
  is_defined_jerk: false
---
stamp:
  sec: 179
  nanosec: 700000000
control_time:
  sec: 0
  nanosec: 0
lateral:
  stamp:
    sec: 179
    nanosec: 700000000
  control_time:
    sec: 0
    nanosec: 0
  steering_tire_angle: -0.19850759208202362
  steering_tire_rotation_rate: -0.6133701205253601
  is_defined_steering_tire_rotation_rate: false
longitudinal:
  stamp:
    sec: 179
    nanosec: 700000000
  control_time:
    sec: 0
    nanosec: 0
  velocity: 0.0
  acceleration: -3.4000000953674316
  jerk: 0.0
  is_defined_acceleration: false
  is_defined_jerk: false
---
stamp:
  sec: 179
  nanosec: 850000000
control_time:
  sec: 0
  nanosec: 0
lateral:
  stamp:
    sec: 179
    nanosec: 850000000
  control_time:
    sec: 0
    nanosec: 0
  steering_tire_angle: -0.19850759208202362
  steering_tire_rotation_rate: -0.6133701205253601
  is_defined_steering_tire_rotation_rate: false
longitudinal:
  stamp:
    sec: 179
    nanosec: 850000000
  control_time:
    sec: 0
    nanosec: 0
  velocity: 0.0
  acceleration: -3.4000000953674316
  jerk: 0.0
  is_defined_acceleration: false
  is_defined_jerk: false
---
stamp:
  sec: 180
  nanosec: 0
control_time:
  sec: 0
  nanosec: 0
lateral:
  stamp:
    sec: 180
    nanosec: 0
  control_time:
    sec: 0
    nanosec: 0
  steering_tire_angle: -0.19850759208202362
  steering_tire_rotation_rate: -0.6133701205253601
  is_defined_steering_tire_rotation_rate: false
longitudinal:
  stamp:
    sec: 180
    nanosec: 0
  control_time:
    sec: 0
    nanosec: 0
  velocity: 0.0
  acceleration: -3.4000000953674316
  jerk: 0.0
  is_defined_acceleration: false
  is_defined_jerk: false
---
stamp:
  sec: 180
  nanosec: 150000000
control_time:
  sec: 0
  nanosec: 0
lateral:
  stamp:
    sec: 180
    nanosec: 150000000
  control_time:
    sec: 0
    nanosec: 0
  steering_tire_angle: -0.19831223785877228
  steering_tire_rotation_rate: -0.4084928035736084
  is_defined_steering_tire_rotation_rate: false
longitudinal:
  stamp:
    sec: 180
    nanosec: 150000000
  control_time:
    sec: 0
    nanosec: 0
  velocity: 0.0
  acceleration: -3.4000000953674316
  jerk: 0.0
  is_defined_acceleration: false
  is_defined_jerk: false
---
stamp:
  sec: 180
  nanosec: 300000000
control_time:
  sec: 0
  nanosec: 0
lateral:
  stamp:
    sec: 180
    nanosec: 300000000
  control_time:
    sec: 0
    nanosec: 0
  steering_tire_angle: -0.19814299046993256
  steering_tire_rotation_rate: -0.23100394010543823
  is_defined_steering_tire_rotation_rate: false
longitudinal:
  stamp:
    sec: 180
    nanosec: 300000000
  control_time:
    sec: 0
    nanosec: 0
  velocity: 0.0
  acceleration: -3.4000000953674316
  jerk: 0.0
  is_defined_acceleration: false
  is_defined_jerk: false
---
stamp:
  sec: 180
  nanosec: 450000000
control_time:
  sec: 0
  nanosec: 0
lateral:
  stamp:
    sec: 180
    nanosec: 450000000
  control_time:
    sec: 0
    nanosec: 0
  steering_tire_angle: -0.19805538654327393
  steering_tire_rotation_rate: -0.13913409411907196
  is_defined_steering_tire_rotation_rate: false
longitudinal:
  stamp:
    sec: 180
    nanosec: 450000000
  control_time:
    sec: 0
    nanosec: 0
  velocity: 0.0
  acceleration: -3.4000000953674316
  jerk: 0.0
  is_defined_acceleration: false
  is_defined_jerk: false
---
stamp:
  sec: 180
  nanosec: 600000000
control_time:
  sec: 0
  nanosec: 0
lateral:
  stamp:
    sec: 180
    nanosec: 600000000
  control_time:
    sec: 0
    nanosec: 0
  steering_tire_angle: -0.19799914956092834
  steering_tire_rotation_rate: -0.08016722649335861
  is_defined_steering_tire_rotation_rate: false
longitudinal:
  stamp:
    sec: 180
    nanosec: 600000000
  control_time:
    sec: 0
    nanosec: 0
  velocity: 0.0
  acceleration: -3.4000000953674316
  jerk: 0.0
  is_defined_acceleration: false
  is_defined_jerk: false
---
stamp:
  sec: 180
  nanosec: 750000000
control_time:
  sec: 0
  nanosec: 0
lateral:
  stamp:
    sec: 180
    nanosec: 750000000
  control_time:
    sec: 0
    nanosec: 0
  steering_tire_angle: -0.1979760080575943
  steering_tire_rotation_rate: -0.05589419975876808
  is_defined_steering_tire_rotation_rate: false
longitudinal:
  stamp:
    sec: 180
    nanosec: 750000000
  control_time:
    sec: 0
    nanosec: 0
  velocity: 0.0
  acceleration: -3.4000000953674316
  jerk: 0.0
  is_defined_acceleration: false
  is_defined_jerk: false
---
stamp:
  sec: 180
  nanosec: 900000000
control_time:
  sec: 0
  nanosec: 0
lateral:
  stamp:
    sec: 180
    nanosec: 900000000
  control_time:
    sec: 0
    nanosec: 0
  steering_tire_angle: -0.19795608520507812
  steering_tire_rotation_rate: -0.03500906750559807
  is_defined_steering_tire_rotation_rate: false
longitudinal:
  stamp:
    sec: 180
    nanosec: 900000000
  control_time:
    sec: 0
    nanosec: 0
  velocity: 0.0
  acceleration: -3.4000000953674316
  jerk: 0.0
  is_defined_acceleration: false
  is_defined_jerk: false
---
stamp:
  sec: 181
  nanosec: 50000000
control_time:
  sec: 0
  nanosec: 0
lateral:
  stamp:
    sec: 181
    nanosec: 50000000
  control_time:
    sec: 0
    nanosec: 0
  steering_tire_angle: -0.1979512870311737
  steering_tire_rotation_rate: -0.029977282509207726
  is_defined_steering_tire_rotation_rate: false
longitudinal:
  stamp:
    sec: 181
    nanosec: 50000000
  control_time:
    sec: 0
    nanosec: 0
  velocity: 0.2524537742137909
  acceleration: 0.27387213706970215
  jerk: 0.0
  is_defined_acceleration: false
  is_defined_jerk: false
---
stamp:
  sec: 181
  nanosec: 200000000
control_time:
  sec: 0
  nanosec: 0
lateral:
  stamp:
    sec: 181
    nanosec: 200000000
  control_time:
    sec: 0
    nanosec: 0
  steering_tire_angle: -0.1979435831308365
  steering_tire_rotation_rate: -0.02188921347260475
  is_defined_steering_tire_rotation_rate: false
longitudinal:
  stamp:
    sec: 181
    nanosec: 200000000
  control_time:
    sec: 0
    nanosec: 0
  velocity: 0.2524537742137909
  acceleration: 0.2965207099914551
  jerk: 0.0
  is_defined_acceleration: false
  is_defined_jerk: false
---
stamp:
  sec: 181
  nanosec: 350000000
control_time:
  sec: 0
  nanosec: 0
lateral:
  stamp:
    sec: 181
    nanosec: 350000000
  control_time:
    sec: 0
    nanosec: 0
  steering_tire_angle: -0.1979432851076126
  steering_tire_rotation_rate: -0.021577779203653336
  is_defined_steering_tire_rotation_rate: false
longitudinal:
  stamp:
    sec: 181
    nanosec: 350000000
  control_time:
    sec: 0
    nanosec: 0
  velocity: 0.2524537742137909
  acceleration: 0.3169007897377014
  jerk: 0.0
  is_defined_acceleration: false
  is_defined_jerk: false
---
stamp:
  sec: 181
  nanosec: 510000000
control_time:
  sec: 0
  nanosec: 0
lateral:
  stamp:
    sec: 181
    nanosec: 510000000
  control_time:
    sec: 0
    nanosec: 0
  steering_tire_angle: -0.1976565271615982
  steering_tire_rotation_rate: -0.017454028129577637
  is_defined_steering_tire_rotation_rate: false
longitudinal:
  stamp:
    sec: 181
    nanosec: 510000000
  control_time:
    sec: 0
    nanosec: 0
  velocity: 0.2524598240852356
  acceleration: 0.3330726623535156
  jerk: 0.0
  is_defined_acceleration: false
  is_defined_jerk: false
---
stamp:
  sec: 181
  nanosec: 670000000
control_time:
  sec: 0
  nanosec: 0
lateral:
  stamp:
    sec: 181
    nanosec: 670000000
  control_time:
    sec: 0
    nanosec: 0
  steering_tire_angle: -0.19661198556423187
  steering_tire_rotation_rate: -0.014555488713085651
  is_defined_steering_tire_rotation_rate: false
longitudinal:
  stamp:
    sec: 181
    nanosec: 670000000
  control_time:
    sec: 0
    nanosec: 0
  velocity: 0.2771728038787842
  acceleration: 0.35062530636787415
  jerk: 0.0
  is_defined_acceleration: false
  is_defined_jerk: false
---
stamp:
  sec: 181
  nanosec: 810000000
control_time:
  sec: 0
  nanosec: 0
lateral:
  stamp:
    sec: 181
    nanosec: 810000000
  control_time:
    sec: 0
    nanosec: 0
  steering_tire_angle: -0.1942029744386673
  steering_tire_rotation_rate: -0.005965631455183029
  is_defined_steering_tire_rotation_rate: false
longitudinal:
  stamp:
    sec: 181
    nanosec: 810000000
  control_time:
    sec: 0
    nanosec: 0
  velocity: 0.2816300690174103
  acceleration: 0.358773410320282
  jerk: 0.0
  is_defined_acceleration: false
  is_defined_jerk: false
---
stamp:
  sec: 181
  nanosec: 970000000
control_time:
  sec: 0
  nanosec: 0
lateral:
  stamp:
    sec: 181
    nanosec: 970000000
  control_time:
    sec: 0
    nanosec: 0
  steering_tire_angle: -0.18739306926727295
  steering_tire_rotation_rate: 0.014719865284860134
  is_defined_steering_tire_rotation_rate: false
longitudinal:
  stamp:
    sec: 181
    nanosec: 970000000
  control_time:
    sec: 0
    nanosec: 0
  velocity: 0.3259769082069397
  acceleration: 0.37268340587615967
  jerk: 0.0
  is_defined_acceleration: false
  is_defined_jerk: false
---
stamp:
  sec: 182
  nanosec: 110000000
control_time:
  sec: 0
  nanosec: 0
lateral:
  stamp:
    sec: 182
    nanosec: 110000000
  control_time:
    sec: 0
    nanosec: 0
  steering_tire_angle: -0.17796580493450165
  steering_tire_rotation_rate: 0.04252634942531586
  is_defined_steering_tire_rotation_rate: false
longitudinal:
  stamp:
    sec: 182
    nanosec: 110000000
  control_time:
    sec: 0
    nanosec: 0
  velocity: 0.3607211112976074
  acceleration: 0.4289448857307434
  jerk: 0.0
  is_defined_acceleration: false
  is_defined_jerk: false
---
stamp:
  sec: 182
  nanosec: 270000000
control_time:
  sec: 0
  nanosec: 0
lateral:
  stamp:
    sec: 182
    nanosec: 270000000
  control_time:
    sec: 0
    nanosec: 0
  steering_tire_angle: -0.16580826044082642
  steering_tire_rotation_rate: 0.0699855387210846
  is_defined_steering_tire_rotation_rate: false
longitudinal:
  stamp:
    sec: 182
    nanosec: 270000000
  control_time:
    sec: 0
    nanosec: 0
  velocity: 0.4222579300403595
  acceleration: 0.4695260226726532
  jerk: 0.0
  is_defined_acceleration: false
  is_defined_jerk: false
---
stamp:
  sec: 182
  nanosec: 410000000
control_time:
  sec: 0
  nanosec: 0
lateral:
  stamp:
    sec: 182
    nanosec: 410000000
  control_time:
    sec: 0
    nanosec: 0
  steering_tire_angle: -0.15165618062019348
  steering_tire_rotation_rate: 0.08834052830934525
  is_defined_steering_tire_rotation_rate: false
longitudinal:
  stamp:
    sec: 182
    nanosec: 410000000
  control_time:
    sec: 0
    nanosec: 0
  velocity: 0.4720091223716736
  acceleration: 0.5152130126953125
  jerk: 0.0
  is_defined_acceleration: false
  is_defined_jerk: false
---
stamp:
  sec: 182
  nanosec: 570000000
control_time:
  sec: 0
  nanosec: 0
lateral:
  stamp:
    sec: 182
    nanosec: 570000000
  control_time:
    sec: 0
    nanosec: 0
  steering_tire_angle: -0.13464419543743134
  steering_tire_rotation_rate: 0.10562146455049515
  is_defined_steering_tire_rotation_rate: false
longitudinal:
  stamp:
    sec: 182
    nanosec: 570000000
  control_time:
    sec: 0
    nanosec: 0
  velocity: 0.550530195236206
  acceleration: 0.5426325798034668
  jerk: 0.0
  is_defined_acceleration: false
  is_defined_jerk: false
---
stamp:
  sec: 182
  nanosec: 710000000
control_time:
  sec: 0
  nanosec: 0
lateral:
  stamp:
    sec: 182
    nanosec: 710000000
  control_time:
    sec: 0
    nanosec: 0
  steering_tire_angle: -0.11741940677165985
  steering_tire_rotation_rate: 0.11621019244194031
  is_defined_steering_tire_rotation_rate: false
longitudinal:
  stamp:
    sec: 182
    nanosec: 710000000
  control_time:
    sec: 0
    nanosec: 0
  velocity: 0.603365957736969
  acceleration: 0.5807618498802185
  jerk: 0.0
  is_defined_acceleration: false
  is_defined_jerk: false
---
stamp:
  sec: 182
  nanosec: 870000000
control_time:
  sec: 0
  nanosec: 0
lateral:
  stamp:
    sec: 182
    nanosec: 870000000
  control_time:
    sec: 0
    nanosec: 0
  steering_tire_angle: -0.09593270719051361
  steering_tire_rotation_rate: 0.13319310545921326
  is_defined_steering_tire_rotation_rate: false
longitudinal:
  stamp:
    sec: 182
    nanosec: 870000000
  control_time:
    sec: 0
    nanosec: 0
  velocity: 0.6962954998016357
  acceleration: 0.5899734497070312
  jerk: 0.0
  is_defined_acceleration: false
  is_defined_jerk: false
---
stamp:
  sec: 183
  nanosec: 10000000
control_time:
  sec: 0
  nanosec: 0
lateral:
  stamp:
    sec: 183
    nanosec: 10000000
  control_time:
    sec: 0
    nanosec: 0
  steering_tire_angle: -0.07282943278551102
  steering_tire_rotation_rate: 0.1499265730381012
  is_defined_steering_tire_rotation_rate: false
longitudinal:
  stamp:
    sec: 183
    nanosec: 10000000
  control_time:
    sec: 0
    nanosec: 0
  velocity: 0.7559685111045837
  acceleration: 0.6143801212310791
  jerk: 0.0
  is_defined_acceleration: false
  is_defined_jerk: false
---
stamp:
  sec: 183
  nanosec: 170000000
control_time:
  sec: 0
  nanosec: 0
lateral:
  stamp:
    sec: 183
    nanosec: 170000000
  control_time:
    sec: 0
    nanosec: 0
  steering_tire_angle: -0.05060445889830589
  steering_tire_rotation_rate: 0.16277147829532623
  is_defined_steering_tire_rotation_rate: false
longitudinal:
  stamp:
    sec: 183
    nanosec: 170000000
  control_time:
    sec: 0
    nanosec: 0
  velocity: 0.8468806743621826
  acceleration: 0.5371415019035339
  jerk: 0.0
  is_defined_acceleration: false
  is_defined_jerk: false
---
stamp:
  sec: 183
  nanosec: 310000000
control_time:
  sec: 0
  nanosec: 0
lateral:
  stamp:
    sec: 183
    nanosec: 310000000
  control_time:
    sec: 0
    nanosec: 0
  steering_tire_angle: -0.02918325364589691
  steering_tire_rotation_rate: 0.16796500980854034
  is_defined_steering_tire_rotation_rate: false
longitudinal:
  stamp:
    sec: 183
    nanosec: 310000000
  control_time:
    sec: 0
    nanosec: 0
  velocity: 0.9072573781013489
  acceleration: 0.5929984450340271
  jerk: 0.0
  is_defined_acceleration: false
  is_defined_jerk: false
---
stamp:
  sec: 183
  nanosec: 470000000
control_time:
  sec: 0
  nanosec: 0
lateral:
  stamp:
    sec: 183
    nanosec: 470000000
  control_time:
    sec: 0
    nanosec: 0
  steering_tire_angle: -0.011375553905963898
  steering_tire_rotation_rate: 0.1611400693655014
  is_defined_steering_tire_rotation_rate: false
longitudinal:
  stamp:
    sec: 183
    nanosec: 470000000
  control_time:
    sec: 0
    nanosec: 0
  velocity: 0.9949781894683838
  acceleration: 0.5843558311462402
  jerk: 0.0
  is_defined_acceleration: false
  is_defined_jerk: false
---
stamp:
  sec: 183
  nanosec: 610000000
control_time:
  sec: 0
  nanosec: 0
lateral:
  stamp:
    sec: 183
    nanosec: 610000000
  control_time:
    sec: 0
    nanosec: 0
  steering_tire_angle: 0.006579043809324503
  steering_tire_rotation_rate: 0.15662029385566711
  is_defined_steering_tire_rotation_rate: false
longitudinal:
  stamp:
    sec: 183
    nanosec: 610000000
  control_time:
    sec: 0
    nanosec: 0
  velocity: 1.0519713163375854
  acceleration: 0.5853697657585144
  jerk: 0.0
  is_defined_acceleration: false
  is_defined_jerk: false
---
stamp:
  sec: 183
  nanosec: 770000000
control_time:
  sec: 0
  nanosec: 0
lateral:
  stamp:
    sec: 183
    nanosec: 770000000
  control_time:
    sec: 0
    nanosec: 0
  steering_tire_angle: 0.018806125968694687
  steering_tire_rotation_rate: 0.14059214293956757
  is_defined_steering_tire_rotation_rate: false
longitudinal:
  stamp:
    sec: 183
    nanosec: 770000000
  control_time:
    sec: 0
    nanosec: 0
  velocity: 1.1418211460113525
  acceleration: 0.5607865452766418
  jerk: 0.0
  is_defined_acceleration: false
  is_defined_jerk: false
---
stamp:
  sec: 183
  nanosec: 910000000
control_time:
  sec: 0
  nanosec: 0
lateral:
  stamp:
    sec: 183
    nanosec: 910000000
  control_time:
    sec: 0
    nanosec: 0
  steering_tire_angle: 0.024043714627623558
  steering_tire_rotation_rate: 0.10741552710533142
  is_defined_steering_tire_rotation_rate: false
longitudinal:
  stamp:
    sec: 183
    nanosec: 910000000
  control_time:
    sec: 0
    nanosec: 0
  velocity: 1.2022416591644287
  acceleration: 0.5518780946731567
  jerk: 0.0
  is_defined_acceleration: false
  is_defined_jerk: false
---
stamp:
  sec: 184
  nanosec: 70000000
control_time:
  sec: 0
  nanosec: 0
lateral:
  stamp:
    sec: 184
    nanosec: 70000000
  control_time:
    sec: 0
    nanosec: 0
  steering_tire_angle: 0.026582924649119377
  steering_tire_rotation_rate: 0.06829983741044998
  is_defined_steering_tire_rotation_rate: false
longitudinal:
  stamp:
    sec: 184
    nanosec: 70000000
  control_time:
    sec: 0
    nanosec: 0
  velocity: 1.2830981016159058
  acceleration: 0.525122344493866
  jerk: 0.0
  is_defined_acceleration: false
  is_defined_jerk: false
---
stamp:
  sec: 184
  nanosec: 210000000
control_time:
  sec: 0
  nanosec: 0
lateral:
  stamp:
    sec: 184
    nanosec: 210000000
  control_time:
    sec: 0
    nanosec: 0
  steering_tire_angle: 0.02509457804262638
  steering_tire_rotation_rate: 0.0291705634444952
  is_defined_steering_tire_rotation_rate: false
longitudinal:
  stamp:
    sec: 184
    nanosec: 210000000
  control_time:
    sec: 0
    nanosec: 0
  velocity: 1.3362129926681519
  acceleration: 0.5125737190246582
  jerk: 0.0
  is_defined_acceleration: false
  is_defined_jerk: false
---
stamp:
  sec: 184
  nanosec: 370000000
control_time:
  sec: 0
  nanosec: 0
lateral:
  stamp:
    sec: 184
    nanosec: 370000000
  control_time:
    sec: 0
    nanosec: 0
  steering_tire_angle: 0.028917113319039345
  steering_tire_rotation_rate: 0.020429307594895363
  is_defined_steering_tire_rotation_rate: false
longitudinal:
  stamp:
    sec: 184
    nanosec: 370000000
  control_time:
    sec: 0
    nanosec: 0
  velocity: 1.4170215129852295
  acceleration: 0.48076584935188293
  jerk: 0.0
  is_defined_acceleration: false
  is_defined_jerk: false
---
stamp:
  sec: 184
  nanosec: 510000000
control_time:
  sec: 0
  nanosec: 0
lateral:
  stamp:
    sec: 184
    nanosec: 510000000
  control_time:
    sec: 0
    nanosec: 0
  steering_tire_angle: 0.03419361263513565
  steering_tire_rotation_rate: 0.029627472162246704
  is_defined_steering_tire_rotation_rate: false
longitudinal:
  stamp:
    sec: 184
    nanosec: 510000000
  control_time:
    sec: 0
    nanosec: 0
  velocity: 1.4714937210083008
  acceleration: 0.4628909230232239
  jerk: 0.0
  is_defined_acceleration: false
  is_defined_jerk: false
---
stamp:
  sec: 184
  nanosec: 670000000
control_time:
  sec: 0
  nanosec: 0
lateral:
  stamp:
    sec: 184
    nanosec: 670000000
  control_time:
    sec: 0
    nanosec: 0
  steering_tire_angle: 0.03490392863750458
  steering_tire_rotation_rate: 0.026033001020550728
  is_defined_steering_tire_rotation_rate: false
longitudinal:
  stamp:
    sec: 184
    nanosec: 670000000
  control_time:
    sec: 0
    nanosec: 0
  velocity: 1.5418527126312256
  acceleration: 0.4332832396030426
  jerk: 0.0
  is_defined_acceleration: false
  is_defined_jerk: false
---
stamp:
  sec: 184
  nanosec: 810000000
control_time:
  sec: 0
  nanosec: 0
lateral:
  stamp:
    sec: 184
    nanosec: 810000000
  control_time:
    sec: 0
    nanosec: 0
  steering_tire_angle: 0.04059895500540733
  steering_tire_rotation_rate: 0.033326130360364914
  is_defined_steering_tire_rotation_rate: false
longitudinal:
  stamp:
    sec: 184
    nanosec: 810000000
  control_time:
    sec: 0
    nanosec: 0
  velocity: 1.5921881198883057
  acceleration: 0.41490986943244934
  jerk: 0.0
  is_defined_acceleration: false
  is_defined_jerk: false
---
stamp:
  sec: 184
  nanosec: 970000000
control_time:
  sec: 0
  nanosec: 0
lateral:
  stamp:
    sec: 184
    nanosec: 970000000
  control_time:
    sec: 0
    nanosec: 0
  steering_tire_angle: 0.03560794144868851
  steering_tire_rotation_rate: 0.006752164103090763
  is_defined_steering_tire_rotation_rate: false
longitudinal:
  stamp:
    sec: 184
    nanosec: 970000000
  control_time:
    sec: 0
    nanosec: 0
  velocity: 1.6569404602050781
  acceleration: 0.38637495040893555
  jerk: 0.0
  is_defined_acceleration: false
  is_defined_jerk: false
---
stamp:
  sec: 185
  nanosec: 110000000
control_time:
  sec: 0
  nanosec: 0
lateral:
  stamp:
    sec: 185
    nanosec: 110000000
  control_time:
    sec: 0
    nanosec: 0
  steering_tire_angle: 0.037353500723838806
  steering_tire_rotation_rate: 0.011071117594838142
  is_defined_steering_tire_rotation_rate: false
longitudinal:
  stamp:
    sec: 185
    nanosec: 110000000
  control_time:
    sec: 0
    nanosec: 0
  velocity: 1.6995222568511963
  acceleration: 0.3698805272579193
  jerk: 0.0
  is_defined_acceleration: false
  is_defined_jerk: false
---
stamp:
  sec: 185
  nanosec: 270000000
control_time:
  sec: 0
  nanosec: 0
lateral:
  stamp:
    sec: 185
    nanosec: 270000000
  control_time:
    sec: 0
    nanosec: 0
  steering_tire_angle: 0.038326606154441833
  steering_tire_rotation_rate: 0.014524540863931179
  is_defined_steering_tire_rotation_rate: false
longitudinal:
  stamp:
    sec: 185
    nanosec: 270000000
  control_time:
    sec: 0
    nanosec: 0
  velocity: 1.7626290321350098
  acceleration: 0.34134194254875183
  jerk: 0.0
  is_defined_acceleration: false
  is_defined_jerk: false
---
stamp:
  sec: 185
  nanosec: 410000000
control_time:
  sec: 0
  nanosec: 0
lateral:
  stamp:
    sec: 185
    nanosec: 410000000
  control_time:
    sec: 0
    nanosec: 0
  steering_tire_angle: 0.038236431777477264
  steering_tire_rotation_rate: 0.01596190594136715
  is_defined_steering_tire_rotation_rate: false
longitudinal:
  stamp:
    sec: 185
    nanosec: 410000000
  control_time:
    sec: 0
    nanosec: 0
  velocity: 1.8050287961959839
  acceleration: 0.32470113039016724
  jerk: 0.0
  is_defined_acceleration: false
  is_defined_jerk: false
---
stamp:
  sec: 185
  nanosec: 570000000
control_time:
  sec: 0
  nanosec: 0
lateral:
  stamp:
    sec: 185
    nanosec: 570000000
  control_time:
    sec: 0
    nanosec: 0
  steering_tire_angle: 0.03420225903391838
  steering_tire_rotation_rate: 0.008455674163997173
  is_defined_steering_tire_rotation_rate: false
longitudinal:
  stamp:
    sec: 185
    nanosec: 570000000
  control_time:
    sec: 0
    nanosec: 0
  velocity: 1.859195590019226
  acceleration: 0.3008919656276703
  jerk: 0.0
  is_defined_acceleration: false
  is_defined_jerk: false
---
stamp:
  sec: 185
  nanosec: 710000000
control_time:
  sec: 0
  nanosec: 0
lateral:
  stamp:
    sec: 185
    nanosec: 710000000
  control_time:
    sec: 0
    nanosec: 0
  steering_tire_angle: 0.02656378597021103
  steering_tire_rotation_rate: -0.0194411464035511
  is_defined_steering_tire_rotation_rate: false
longitudinal:
  stamp:
    sec: 185
    nanosec: 710000000
  control_time:
    sec: 0
    nanosec: 0
  velocity: 1.8980575799942017
  acceleration: 0.28637242317199707
  jerk: 0.0
  is_defined_acceleration: false
  is_defined_jerk: false
---
stamp:
  sec: 185
  nanosec: 870000000
control_time:
  sec: 0
  nanosec: 0
lateral:
  stamp:
    sec: 185
    nanosec: 870000000
  control_time:
    sec: 0
    nanosec: 0
  steering_tire_angle: 0.02393789030611515
  steering_tire_rotation_rate: -0.023687995970249176
  is_defined_steering_tire_rotation_rate: false
longitudinal:
  stamp:
    sec: 185
    nanosec: 870000000
  control_time:
    sec: 0
    nanosec: 0
  velocity: 1.9475085735321045
  acceleration: 0.2657138407230377
  jerk: 0.0
  is_defined_acceleration: false
  is_defined_jerk: false
---
stamp:
  sec: 186
  nanosec: 10000000
control_time:
  sec: 0
  nanosec: 0
lateral:
  stamp:
    sec: 186
    nanosec: 10000000
  control_time:
    sec: 0
    nanosec: 0
  steering_tire_angle: 0.022305360063910484
  steering_tire_rotation_rate: -0.014746589586138725
  is_defined_steering_tire_rotation_rate: false
longitudinal:
  stamp:
    sec: 186
    nanosec: 10000000
  control_time:
    sec: 0
    nanosec: 0
  velocity: 1.9827624559402466
  acceleration: 0.2448757141828537
  jerk: 0.0
  is_defined_acceleration: false
  is_defined_jerk: false
---
stamp:
  sec: 186
  nanosec: 170000000
control_time:
  sec: 0
  nanosec: 0
lateral:
  stamp:
    sec: 186
    nanosec: 170000000
  control_time:
    sec: 0
    nanosec: 0
  steering_tire_angle: 0.01927272416651249
  steering_tire_rotation_rate: -0.015470944344997406
  is_defined_steering_tire_rotation_rate: false
longitudinal:
  stamp:
    sec: 186
    nanosec: 170000000
  control_time:
    sec: 0
    nanosec: 0
  velocity: 2.02603816986084
  acceleration: 0.2147243618965149
  jerk: 0.0
  is_defined_acceleration: false
  is_defined_jerk: false
---
stamp:
  sec: 186
  nanosec: 310000000
control_time:
  sec: 0
  nanosec: 0
lateral:
  stamp:
    sec: 186
    nanosec: 310000000
  control_time:
    sec: 0
    nanosec: 0
  steering_tire_angle: 0.01506031397730112
  steering_tire_rotation_rate: -0.023394720628857613
  is_defined_steering_tire_rotation_rate: false
longitudinal:
  stamp:
    sec: 186
    nanosec: 310000000
  control_time:
    sec: 0
    nanosec: 0
  velocity: 2.0548794269561768
  acceleration: 0.18922816216945648
  jerk: 0.0
  is_defined_acceleration: false
  is_defined_jerk: false
---
stamp:
  sec: 186
  nanosec: 470000000
control_time:
  sec: 0
  nanosec: 0
lateral:
  stamp:
    sec: 186
    nanosec: 470000000
  control_time:
    sec: 0
    nanosec: 0
  steering_tire_angle: 0.014164370484650135
  steering_tire_rotation_rate: -0.018647238612174988
  is_defined_steering_tire_rotation_rate: false
longitudinal:
  stamp:
    sec: 186
    nanosec: 470000000
  control_time:
    sec: 0
    nanosec: 0
  velocity: 2.089528799057007
  acceleration: 0.15893563628196716
  jerk: 0.0
  is_defined_acceleration: false
  is_defined_jerk: false
---
stamp:
  sec: 186
  nanosec: 610000000
control_time:
  sec: 0
  nanosec: 0
lateral:
  stamp:
    sec: 186
    nanosec: 610000000
  control_time:
    sec: 0
    nanosec: 0
  steering_tire_angle: 0.012113207951188087
  steering_tire_rotation_rate: -0.01546165905892849
  is_defined_steering_tire_rotation_rate: false
longitudinal:
  stamp:
    sec: 186
    nanosec: 610000000
  control_time:
    sec: 0
    nanosec: 0
  velocity: 2.1117355823516846
  acceleration: 0.13700853288173676
  jerk: 0.0
  is_defined_acceleration: false
  is_defined_jerk: false
---
stamp:
  sec: 186
  nanosec: 770000000
control_time:
  sec: 0
  nanosec: 0
lateral:
  stamp:
    sec: 186
    nanosec: 770000000
  control_time:
    sec: 0
    nanosec: 0
  steering_tire_angle: 0.010214025154709816
  steering_tire_rotation_rate: -0.012785675004124641
  is_defined_steering_tire_rotation_rate: false
longitudinal:
  stamp:
    sec: 186
    nanosec: 770000000
  control_time:
    sec: 0
    nanosec: 0
  velocity: 2.1380324363708496
  acceleration: 0.11040246486663818
  jerk: 0.0
  is_defined_acceleration: false
  is_defined_jerk: false
---
stamp:
  sec: 186
  nanosec: 910000000
control_time:
  sec: 0
  nanosec: 0
lateral:
  stamp:
    sec: 186
    nanosec: 910000000
  control_time:
    sec: 0
    nanosec: 0
  steering_tire_angle: 0.008011242374777794
  steering_tire_rotation_rate: -0.015450547449290752
  is_defined_steering_tire_rotation_rate: false
longitudinal:
  stamp:
    sec: 186
    nanosec: 910000000
  control_time:
    sec: 0
    nanosec: 0
  velocity: 2.152919054031372
  acceleration: 0.09334289282560349
  jerk: 0.0
  is_defined_acceleration: false
  is_defined_jerk: false
---
stamp:
  sec: 187
  nanosec: 70000000
control_time:
  sec: 0
  nanosec: 0
lateral:
  stamp:
    sec: 187
    nanosec: 70000000
  control_time:
    sec: 0
    nanosec: 0
  steering_tire_angle: 0.00874777976423502
  steering_tire_rotation_rate: -0.008295692503452301
  is_defined_steering_tire_rotation_rate: false
longitudinal:
  stamp:
    sec: 187
    nanosec: 70000000
  control_time:
    sec: 0
    nanosec: 0
  velocity: 2.1731605529785156
  acceleration: 0.06955797225236893
  jerk: 0.0
  is_defined_acceleration: false
  is_defined_jerk: false
---
stamp:
  sec: 187
  nanosec: 210000000
control_time:
  sec: 0
  nanosec: 0
lateral:
  stamp:
    sec: 187
    nanosec: 210000000
  control_time:
    sec: 0
    nanosec: 0
  steering_tire_angle: 0.005358999595046043
  steering_tire_rotation_rate: -0.012754962779581547
  is_defined_steering_tire_rotation_rate: false
longitudinal:
  stamp:
    sec: 187
    nanosec: 210000000
  control_time:
    sec: 0
    nanosec: 0
  velocity: 2.1842665672302246
  acceleration: 0.0547410249710083
  jerk: 0.0
  is_defined_acceleration: false
  is_defined_jerk: false
---
stamp:
  sec: 187
  nanosec: 370000000
control_time:
  sec: 0
  nanosec: 0
lateral:
  stamp:
    sec: 187
    nanosec: 370000000
  control_time:
    sec: 0
    nanosec: 0
  steering_tire_angle: 0.005341551266610622
  steering_tire_rotation_rate: -0.0076615409925580025
  is_defined_steering_tire_rotation_rate: false
longitudinal:
  stamp:
    sec: 187
    nanosec: 370000000
  control_time:
    sec: 0
    nanosec: 0
  velocity: 2.196810722351074
  acceleration: 0.03708546981215477
  jerk: 0.0
  is_defined_acceleration: false
  is_defined_jerk: false
---
stamp:
  sec: 187
  nanosec: 510000000
control_time:
  sec: 0
  nanosec: 0
lateral:
  stamp:
    sec: 187
    nanosec: 510000000
  control_time:
    sec: 0
    nanosec: 0
  steering_tire_angle: 0.004845203831791878
  steering_tire_rotation_rate: -0.005831785965710878
  is_defined_steering_tire_rotation_rate: false
longitudinal:
  stamp:
    sec: 187
    nanosec: 510000000
  control_time:
    sec: 0
    nanosec: 0
  velocity: 2.2030420303344727
  acceleration: 0.02742771804332733
  jerk: 0.0
  is_defined_acceleration: false
  is_defined_jerk: false
---
stamp:
  sec: 187
  nanosec: 670000000
control_time:
  sec: 0
  nanosec: 0
lateral:
  stamp:
    sec: 187
    nanosec: 670000000
  control_time:
    sec: 0
    nanosec: 0
  steering_tire_angle: 0.0030690296553075314
  steering_tire_rotation_rate: -0.007472233846783638
  is_defined_steering_tire_rotation_rate: false
longitudinal:
  stamp:
    sec: 187
    nanosec: 670000000
  control_time:
    sec: 0
    nanosec: 0
  velocity: 2.211101770401001
  acceleration: 0.014062506146728992
  jerk: 0.0
  is_defined_acceleration: false
  is_defined_jerk: false
---
stamp:
  sec: 187
  nanosec: 810000000
control_time:
  sec: 0
  nanosec: 0
lateral:
  stamp:
    sec: 187
    nanosec: 810000000
  control_time:
    sec: 0
    nanosec: 0
  steering_tire_angle: 0.0005308981635607779
  steering_tire_rotation_rate: -0.010962705127894878
  is_defined_steering_tire_rotation_rate: false
longitudinal:
  stamp:
    sec: 187
    nanosec: 810000000
  control_time:
    sec: 0
    nanosec: 0
  velocity: 2.2143802642822266
  acceleration: 0.008617878891527653
  jerk: 0.0
  is_defined_acceleration: false
  is_defined_jerk: false
---
stamp:
  sec: 187
  nanosec: 970000000
control_time:
  sec: 0
  nanosec: 0
lateral:
  stamp:
    sec: 187
    nanosec: 970000000
  control_time:
    sec: 0
    nanosec: 0
  steering_tire_angle: -0.0009519001469016075
  steering_tire_rotation_rate: -0.011859008111059666
  is_defined_steering_tire_rotation_rate: false
longitudinal:
  stamp:
    sec: 187
    nanosec: 970000000
  control_time:
    sec: 0
    nanosec: 0
  velocity: 2.218445062637329
  acceleration: 0.0012556310975924134
  jerk: 0.0
  is_defined_acceleration: false
  is_defined_jerk: false
---
stamp:
  sec: 188
  nanosec: 110000000
control_time:
  sec: 0
  nanosec: 0
lateral:
  stamp:
    sec: 188
    nanosec: 110000000
  control_time:
    sec: 0
    nanosec: 0
  steering_tire_angle: -0.002389592584222555
  steering_tire_rotation_rate: -0.010659519582986832
  is_defined_steering_tire_rotation_rate: false
longitudinal:
  stamp:
    sec: 188
    nanosec: 110000000
  control_time:
    sec: 0
    nanosec: 0
  velocity: 2.2199206352233887
  acceleration: -0.00046775577357038856
  jerk: 0.0
  is_defined_acceleration: false
  is_defined_jerk: false
---
stamp:
  sec: 188
  nanosec: 270000000
control_time:
  sec: 0
  nanosec: 0
lateral:
  stamp:
    sec: 188
    nanosec: 270000000
  control_time:
    sec: 0
    nanosec: 0
  steering_tire_angle: -0.004154129885137081
  steering_tire_rotation_rate: -0.009790139272809029
  is_defined_steering_tire_rotation_rate: false
longitudinal:
  stamp:
    sec: 188
    nanosec: 270000000
  control_time:
    sec: 0
    nanosec: 0
  velocity: 2.2213408946990967
  acceleration: -0.0017913640476763248
  jerk: 0.0
  is_defined_acceleration: false
  is_defined_jerk: false
---
stamp:
  sec: 188
  nanosec: 410000000
control_time:
  sec: 0
  nanosec: 0
lateral:
  stamp:
    sec: 188
    nanosec: 410000000
  control_time:
    sec: 0
    nanosec: 0
  steering_tire_angle: -0.006566884461790323
  steering_tire_rotation_rate: -0.01148492656648159
  is_defined_steering_tire_rotation_rate: false
longitudinal:
  stamp:
    sec: 188
    nanosec: 410000000
  control_time:
    sec: 0
    nanosec: 0
  velocity: 2.2217330932617188
  acceleration: 0.00021023490990046412
  jerk: 0.0
  is_defined_acceleration: false
  is_defined_jerk: false
---
stamp:
  sec: 188
  nanosec: 570000000
control_time:
  sec: 0
  nanosec: 0
lateral:
  stamp:
    sec: 188
    nanosec: 570000000
  control_time:
    sec: 0
    nanosec: 0
  steering_tire_angle: -0.008863943628966808
  steering_tire_rotation_rate: -0.012725764885544777
  is_defined_steering_tire_rotation_rate: false
longitudinal:
  stamp:
    sec: 188
    nanosec: 570000000
  control_time:
    sec: 0
    nanosec: 0
  velocity: 2.2220969200134277
  acceleration: 0.002745935460552573
  jerk: 0.0
  is_defined_acceleration: false
  is_defined_jerk: false
---
stamp:
  sec: 188
  nanosec: 710000000
control_time:
  sec: 0
  nanosec: 0
lateral:
  stamp:
    sec: 188
    nanosec: 710000000
  control_time:
    sec: 0
    nanosec: 0
  steering_tire_angle: -0.01027184072881937
  steering_tire_rotation_rate: -0.009510520845651627
  is_defined_steering_tire_rotation_rate: false
longitudinal:
  stamp:
    sec: 188
    nanosec: 710000000
  control_time:
    sec: 0
    nanosec: 0
  velocity: 2.2221267223358154
  acceleration: 0.006922302767634392
  jerk: 0.0
  is_defined_acceleration: false
  is_defined_jerk: false
---
stamp:
  sec: 188
  nanosec: 870000000
control_time:
  sec: 0
  nanosec: 0
lateral:
  stamp:
    sec: 188
    nanosec: 870000000
  control_time:
    sec: 0
    nanosec: 0
  steering_tire_angle: -0.01440875418484211
  steering_tire_rotation_rate: -0.012723573483526707
  is_defined_steering_tire_rotation_rate: false
longitudinal:
  stamp:
    sec: 188
    nanosec: 870000000
  control_time:
    sec: 0
    nanosec: 0
  velocity: 2.222205877304077
  acceleration: 0.011152639053761959
  jerk: 0.0
  is_defined_acceleration: false
  is_defined_jerk: false
---
stamp:
  sec: 189
  nanosec: 10000000
control_time:
  sec: 0
  nanosec: 0
lateral:
  stamp:
    sec: 189
    nanosec: 10000000
  control_time:
    sec: 0
    nanosec: 0
  steering_tire_angle: -0.014722391031682491
  steering_tire_rotation_rate: -0.005802089348435402
  is_defined_steering_tire_rotation_rate: false
longitudinal:
  stamp:
    sec: 189
    nanosec: 10000000
  control_time:
    sec: 0
    nanosec: 0
  velocity: 2.22220778465271
  acceleration: 0.015839489176869392
  jerk: 0.0
  is_defined_acceleration: false
  is_defined_jerk: false
---
stamp:
  sec: 189
  nanosec: 170000000
control_time:
  sec: 0
  nanosec: 0
lateral:
  stamp:
    sec: 189
    nanosec: 170000000
  control_time:
    sec: 0
    nanosec: 0
  steering_tire_angle: -0.020128240808844566
  steering_tire_rotation_rate: -0.01431948784738779
  is_defined_steering_tire_rotation_rate: false
longitudinal:
  stamp:
    sec: 189
    nanosec: 170000000
  control_time:
    sec: 0
    nanosec: 0
  velocity: 2.2222213745117188
  acceleration: 0.02057180367410183
  jerk: 0.0
  is_defined_acceleration: false
  is_defined_jerk: false
---
stamp:
  sec: 189
  nanosec: 310000000
control_time:
  sec: 0
  nanosec: 0
lateral:
  stamp:
    sec: 189
    nanosec: 310000000
  control_time:
    sec: 0
    nanosec: 0
  steering_tire_angle: -0.027051998302340508
  steering_tire_rotation_rate: -0.024337653070688248
  is_defined_steering_tire_rotation_rate: false
longitudinal:
  stamp:
    sec: 189
    nanosec: 310000000
  control_time:
    sec: 0
    nanosec: 0
  velocity: 2.222221851348877
  acceleration: 0.025285977870225906
  jerk: 0.0
  is_defined_acceleration: false
  is_defined_jerk: false
---
stamp:
  sec: 189
  nanosec: 470000000
control_time:
  sec: 0
  nanosec: 0
lateral:
  stamp:
    sec: 189
    nanosec: 470000000
  control_time:
    sec: 0
    nanosec: 0
  steering_tire_angle: -0.03543451800942421
  steering_tire_rotation_rate: -0.03930722177028656
  is_defined_steering_tire_rotation_rate: false
longitudinal:
  stamp:
    sec: 189
    nanosec: 470000000
  control_time:
    sec: 0
    nanosec: 0
  velocity: 2.2222230434417725
  acceleration: 0.029964633285999298
  jerk: 0.0
  is_defined_acceleration: false
  is_defined_jerk: false
---
stamp:
  sec: 189
  nanosec: 610000000
control_time:
  sec: 0
  nanosec: 0
lateral:
  stamp:
    sec: 189
    nanosec: 610000000
  control_time:
    sec: 0
    nanosec: 0
  steering_tire_angle: -0.0363704077899456
  steering_tire_rotation_rate: -0.024678906425833702
  is_defined_steering_tire_rotation_rate: false
longitudinal:
  stamp:
    sec: 189
    nanosec: 610000000
  control_time:
    sec: 0
    nanosec: 0
  velocity: 2.2222235202789307
  acceleration: 0.03438674286007881
  jerk: 0.0
  is_defined_acceleration: false
  is_defined_jerk: false
---
stamp:
  sec: 189
  nanosec: 770000000
control_time:
  sec: 0
  nanosec: 0
lateral:
  stamp:
    sec: 189
    nanosec: 770000000
  control_time:
    sec: 0
    nanosec: 0
  steering_tire_angle: -0.04668959602713585
  steering_tire_rotation_rate: -0.03273823484778404
  is_defined_steering_tire_rotation_rate: false
longitudinal:
  stamp:
    sec: 189
    nanosec: 770000000
  control_time:
    sec: 0
    nanosec: 0
  velocity: 2.2222225666046143
  acceleration: 0.038682058453559875
  jerk: 0.0
  is_defined_acceleration: false
  is_defined_jerk: false
---
stamp:
  sec: 189
  nanosec: 910000000
control_time:
  sec: 0
  nanosec: 0
lateral:
  stamp:
    sec: 189
    nanosec: 910000000
  control_time:
    sec: 0
    nanosec: 0
  steering_tire_angle: -0.05384531617164612
  steering_tire_rotation_rate: -0.03358207270503044
  is_defined_steering_tire_rotation_rate: false
longitudinal:
  stamp:
    sec: 189
    nanosec: 910000000
  control_time:
    sec: 0
    nanosec: 0
  velocity: 2.222222328186035
  acceleration: 0.04256180301308632
  jerk: 0.0
  is_defined_acceleration: false
  is_defined_jerk: false
---
stamp:
  sec: 190
  nanosec: 70000000
control_time:
  sec: 0
  nanosec: 0
lateral:
  stamp:
    sec: 190
    nanosec: 70000000
  control_time:
    sec: 0
    nanosec: 0
  steering_tire_angle: -0.06572776287794113
  steering_tire_rotation_rate: -0.046142105013132095
  is_defined_steering_tire_rotation_rate: false
longitudinal:
  stamp:
    sec: 190
    nanosec: 70000000
  control_time:
    sec: 0
    nanosec: 0
  velocity: 2.222222328186035
  acceleration: 0.04623435065150261
  jerk: 0.0
  is_defined_acceleration: false
  is_defined_jerk: false
---
stamp:
  sec: 190
  nanosec: 210000000
control_time:
  sec: 0
  nanosec: 0
lateral:
  stamp:
    sec: 190
    nanosec: 210000000
  control_time:
    sec: 0
    nanosec: 0
  steering_tire_angle: -0.07798126339912415
  steering_tire_rotation_rate: -0.05413901060819626
  is_defined_steering_tire_rotation_rate: false
longitudinal:
  stamp:
    sec: 190
    nanosec: 210000000
  control_time:
    sec: 0
    nanosec: 0
  velocity: 2.222222328186035
  acceleration: 0.049409717321395874
  jerk: 0.0
  is_defined_acceleration: false
  is_defined_jerk: false
---
stamp:
  sec: 190
  nanosec: 370000000
control_time:
  sec: 0
  nanosec: 0
lateral:
  stamp:
    sec: 190
    nanosec: 370000000
  control_time:
    sec: 0
    nanosec: 0
  steering_tire_angle: -0.08025768399238586
  steering_tire_rotation_rate: -0.056731969118118286
  is_defined_steering_tire_rotation_rate: false
longitudinal:
  stamp:
    sec: 190
    nanosec: 370000000
  control_time:
    sec: 0
    nanosec: 0
  velocity: 2.2222225666046143
  acceleration: 0.05248252674937248
  jerk: 0.0
  is_defined_acceleration: false
  is_defined_jerk: false
---
stamp:
  sec: 190
  nanosec: 510000000
control_time:
  sec: 0
  nanosec: 0
lateral:
  stamp:
    sec: 190
    nanosec: 510000000
  control_time:
    sec: 0
    nanosec: 0
  steering_tire_angle: -0.09551676362752914
  steering_tire_rotation_rate: -0.06618580967187881
  is_defined_steering_tire_rotation_rate: false
longitudinal:
  stamp:
    sec: 190
    nanosec: 510000000
  control_time:
    sec: 0
    nanosec: 0
  velocity: 2.222221612930298
  acceleration: 0.05505441874265671
  jerk: 0.0
  is_defined_acceleration: false
  is_defined_jerk: false
---
stamp:
  sec: 190
  nanosec: 670000000
control_time:
  sec: 0
  nanosec: 0
lateral:
  stamp:
    sec: 190
    nanosec: 670000000
  control_time:
    sec: 0
    nanosec: 0
  steering_tire_angle: -0.11478876322507858
  steering_tire_rotation_rate: -0.07083485275506973
  is_defined_steering_tire_rotation_rate: false
longitudinal:
  stamp:
    sec: 190
    nanosec: 670000000
  control_time:
    sec: 0
    nanosec: 0
  velocity: 2.222221851348877
  acceleration: 0.057260144501924515
  jerk: 0.0
  is_defined_acceleration: false
  is_defined_jerk: false
---
stamp:
  sec: 190
  nanosec: 810000000
control_time:
  sec: 0
  nanosec: 0
lateral:
  stamp:
    sec: 190
    nanosec: 810000000
  control_time:
    sec: 0
    nanosec: 0
  steering_tire_angle: -0.13495466113090515
  steering_tire_rotation_rate: -0.08133906871080399
  is_defined_steering_tire_rotation_rate: false
longitudinal:
  stamp:
    sec: 190
    nanosec: 810000000
  control_time:
    sec: 0
    nanosec: 0
  velocity: 2.2222213745117188
  acceleration: 0.058908045291900635
  jerk: 0.0
  is_defined_acceleration: false
  is_defined_jerk: false
---
stamp:
  sec: 190
  nanosec: 970000000
control_time:
  sec: 0
  nanosec: 0
lateral:
  stamp:
    sec: 190
    nanosec: 970000000
  control_time:
    sec: 0
    nanosec: 0
  steering_tire_angle: -0.15961937606334686
  steering_tire_rotation_rate: -0.09545760601758957
  is_defined_steering_tire_rotation_rate: false
longitudinal:
  stamp:
    sec: 190
    nanosec: 970000000
  control_time:
    sec: 0
    nanosec: 0
  velocity: 2.222221851348877
  acceleration: 0.0602416954934597
  jerk: 0.0
  is_defined_acceleration: false
  is_defined_jerk: false
---
stamp:
  sec: 191
  nanosec: 110000000
control_time:
  sec: 0
  nanosec: 0
lateral:
  stamp:
    sec: 191
    nanosec: 110000000
  control_time:
    sec: 0
    nanosec: 0
  steering_tire_angle: -0.18464291095733643
  steering_tire_rotation_rate: -0.11605312675237656
  is_defined_steering_tire_rotation_rate: false
longitudinal:
  stamp:
    sec: 191
    nanosec: 110000000
  control_time:
    sec: 0
    nanosec: 0
  velocity: 2.2222213745117188
  acceleration: 0.06096774712204933
  jerk: 0.0
  is_defined_acceleration: false
  is_defined_jerk: false
---
stamp:
  sec: 191
  nanosec: 270000000
control_time:
  sec: 0
  nanosec: 0
lateral:
  stamp:
    sec: 191
    nanosec: 270000000
  control_time:
    sec: 0
    nanosec: 0
  steering_tire_angle: -0.211149200797081
  steering_tire_rotation_rate: -0.1230916902422905
  is_defined_steering_tire_rotation_rate: false
longitudinal:
  stamp:
    sec: 191
    nanosec: 270000000
  control_time:
    sec: 0
    nanosec: 0
  velocity: 2.222222089767456
  acceleration: 0.061378635466098785
  jerk: 0.0
  is_defined_acceleration: false
  is_defined_jerk: false
---
stamp:
  sec: 191
  nanosec: 410000000
control_time:
  sec: 0
  nanosec: 0
lateral:
  stamp:
    sec: 191
    nanosec: 410000000
  control_time:
    sec: 0
    nanosec: 0
  steering_tire_angle: -0.23043641448020935
  steering_tire_rotation_rate: -0.1178739070892334
  is_defined_steering_tire_rotation_rate: false
longitudinal:
  stamp:
    sec: 191
    nanosec: 410000000
  control_time:
    sec: 0
    nanosec: 0
  velocity: 2.222221851348877
  acceleration: 0.061212580651044846
  jerk: 0.0
  is_defined_acceleration: false
  is_defined_jerk: false
---
stamp:
  sec: 191
  nanosec: 570000000
control_time:
  sec: 0
  nanosec: 0
lateral:
  stamp:
    sec: 191
    nanosec: 570000000
  control_time:
    sec: 0
    nanosec: 0
  steering_tire_angle: -0.25590580701828003
  steering_tire_rotation_rate: -0.11998461186885834
  is_defined_steering_tire_rotation_rate: false
longitudinal:
  stamp:
    sec: 191
    nanosec: 570000000
  control_time:
    sec: 0
    nanosec: 0
  velocity: 2.222222328186035
  acceleration: 0.0607634000480175
  jerk: 0.0
  is_defined_acceleration: false
  is_defined_jerk: false
---
stamp:
  sec: 191
  nanosec: 710000000
control_time:
  sec: 0
  nanosec: 0
lateral:
  stamp:
    sec: 191
    nanosec: 710000000
  control_time:
    sec: 0
    nanosec: 0
  steering_tire_angle: -0.27110153436660767
  steering_tire_rotation_rate: -0.10083114355802536
  is_defined_steering_tire_rotation_rate: false
longitudinal:
  stamp:
    sec: 191
    nanosec: 710000000
  control_time:
    sec: 0
    nanosec: 0
  velocity: 2.222222089767456
  acceleration: 0.05962663143873215
  jerk: 0.0
  is_defined_acceleration: false
  is_defined_jerk: false
---
stamp:
  sec: 191
  nanosec: 870000000
control_time:
  sec: 0
  nanosec: 0
lateral:
  stamp:
    sec: 191
    nanosec: 870000000
  control_time:
    sec: 0
    nanosec: 0
  steering_tire_angle: -0.2924559712409973
  steering_tire_rotation_rate: -0.09351629763841629
  is_defined_steering_tire_rotation_rate: false
longitudinal:
  stamp:
    sec: 191
    nanosec: 870000000
  control_time:
    sec: 0
    nanosec: 0
  velocity: 2.222222328186035
  acceleration: 0.05822691693902016
  jerk: 0.0
  is_defined_acceleration: false
  is_defined_jerk: false
---
stamp:
  sec: 192
  nanosec: 10000000
control_time:
  sec: 0
  nanosec: 0
lateral:
  stamp:
    sec: 192
    nanosec: 10000000
  control_time:
    sec: 0
    nanosec: 0
  steering_tire_angle: -0.31008079648017883
  steering_tire_rotation_rate: -0.08939499408006668
  is_defined_steering_tire_rotation_rate: false
longitudinal:
  stamp:
    sec: 192
    nanosec: 10000000
  control_time:
    sec: 0
    nanosec: 0
  velocity: 2.222222089767456
  acceleration: 0.05636253580451012
  jerk: 0.0
  is_defined_acceleration: false
  is_defined_jerk: false
---
stamp:
  sec: 192
  nanosec: 170000000
control_time:
  sec: 0
  nanosec: 0
lateral:
  stamp:
    sec: 192
    nanosec: 170000000
  control_time:
    sec: 0
    nanosec: 0
  steering_tire_angle: -0.33075693249702454
  steering_tire_rotation_rate: -0.091657854616642
  is_defined_steering_tire_rotation_rate: false
longitudinal:
  stamp:
    sec: 192
    nanosec: 170000000
  control_time:
    sec: 0
    nanosec: 0
  velocity: 2.2222235202789307
  acceleration: 0.054280564188957214
  jerk: 0.0
  is_defined_acceleration: false
  is_defined_jerk: false
---
stamp:
  sec: 192
  nanosec: 310000000
control_time:
  sec: 0
  nanosec: 0
lateral:
  stamp:
    sec: 192
    nanosec: 310000000
  control_time:
    sec: 0
    nanosec: 0
  steering_tire_angle: -0.3473876714706421
  steering_tire_rotation_rate: -0.09097553044557571
  is_defined_steering_tire_rotation_rate: false
longitudinal:
  stamp:
    sec: 192
    nanosec: 310000000
  control_time:
    sec: 0
    nanosec: 0
  velocity: 2.222222328186035
  acceleration: 0.05185827240347862
  jerk: 0.0
  is_defined_acceleration: false
  is_defined_jerk: false
---
stamp:
  sec: 192
  nanosec: 470000000
control_time:
  sec: 0
  nanosec: 0
lateral:
  stamp:
    sec: 192
    nanosec: 470000000
  control_time:
    sec: 0
    nanosec: 0
  steering_tire_angle: -0.35467660427093506
  steering_tire_rotation_rate: -0.06770485639572144
  is_defined_steering_tire_rotation_rate: false
longitudinal:
  stamp:
    sec: 192
    nanosec: 470000000
  control_time:
    sec: 0
    nanosec: 0
  velocity: 2.2222230434417725
  acceleration: 0.04936714470386505
  jerk: 0.0
  is_defined_acceleration: false
  is_defined_jerk: false
---
stamp:
  sec: 192
  nanosec: 610000000
control_time:
  sec: 0
  nanosec: 0
lateral:
  stamp:
    sec: 192
    nanosec: 610000000
  control_time:
    sec: 0
    nanosec: 0
  steering_tire_angle: -0.375677227973938
  steering_tire_rotation_rate: -0.08260504901409149
  is_defined_steering_tire_rotation_rate: false
longitudinal:
  stamp:
    sec: 192
    nanosec: 610000000
  control_time:
    sec: 0
    nanosec: 0
  velocity: 2.222223997116089
  acceleration: 0.04663310572504997
  jerk: 0.0
  is_defined_acceleration: false
  is_defined_jerk: false
---
stamp:
  sec: 192
  nanosec: 770000000
control_time:
  sec: 0
  nanosec: 0
lateral:
  stamp:
    sec: 192
    nanosec: 770000000
  control_time:
    sec: 0
    nanosec: 0
  steering_tire_angle: -0.38267582654953003
  steering_tire_rotation_rate: -0.06296229362487793
  is_defined_steering_tire_rotation_rate: false
longitudinal:
  stamp:
    sec: 192
    nanosec: 770000000
  control_time:
    sec: 0
    nanosec: 0
  velocity: 2.2222237586975098
  acceleration: 0.043907713145017624
  jerk: 0.0
  is_defined_acceleration: false
  is_defined_jerk: false
---
stamp:
  sec: 192
  nanosec: 910000000
control_time:
  sec: 0
  nanosec: 0
lateral:
  stamp:
    sec: 192
    nanosec: 910000000
  control_time:
    sec: 0
    nanosec: 0
  steering_tire_angle: -0.3895036578178406
  steering_tire_rotation_rate: -0.053330954164266586
  is_defined_steering_tire_rotation_rate: false
longitudinal:
  stamp:
    sec: 192
    nanosec: 910000000
  control_time:
    sec: 0
    nanosec: 0
  velocity: 2.222224235534668
  acceleration: 0.04104536771774292
  jerk: 0.0
  is_defined_acceleration: false
  is_defined_jerk: false
---
stamp:
  sec: 193
  nanosec: 70000000
control_time:
  sec: 0
  nanosec: 0
lateral:
  stamp:
    sec: 193
    nanosec: 70000000
  control_time:
    sec: 0
    nanosec: 0
  steering_tire_angle: -0.4041734039783478
  steering_tire_rotation_rate: -0.06200558319687843
  is_defined_steering_tire_rotation_rate: false
longitudinal:
  stamp:
    sec: 193
    nanosec: 70000000
  control_time:
    sec: 0
    nanosec: 0
  velocity: 2.2222237586975098
  acceleration: 0.03824825584888458
  jerk: 0.0
  is_defined_acceleration: false
  is_defined_jerk: false
---
stamp:
  sec: 193
  nanosec: 210000000
control_time:
  sec: 0
  nanosec: 0
lateral:
  stamp:
    sec: 193
    nanosec: 210000000
  control_time:
    sec: 0
    nanosec: 0
  steering_tire_angle: -0.40417805314064026
  steering_tire_rotation_rate: -0.03377170488238335
  is_defined_steering_tire_rotation_rate: false
longitudinal:
  stamp:
    sec: 193
    nanosec: 210000000
  control_time:
    sec: 0
    nanosec: 0
  velocity: 2.222224235534668
  acceleration: 0.03541756421327591
  jerk: 0.0
  is_defined_acceleration: false
  is_defined_jerk: false
---
stamp:
  sec: 193
  nanosec: 370000000
control_time:
  sec: 0
  nanosec: 0
lateral:
  stamp:
    sec: 193
    nanosec: 370000000
  control_time:
    sec: 0
    nanosec: 0
  steering_tire_angle: -0.4124797582626343
  steering_tire_rotation_rate: -0.04326775297522545
  is_defined_steering_tire_rotation_rate: false
longitudinal:
  stamp:
    sec: 193
    nanosec: 370000000
  control_time:
    sec: 0
    nanosec: 0
  velocity: 2.2222237586975098
  acceleration: 0.032750204205513
  jerk: 0.0
  is_defined_acceleration: false
  is_defined_jerk: false
---
stamp:
  sec: 193
  nanosec: 510000000
control_time:
  sec: 0
  nanosec: 0
lateral:
  stamp:
    sec: 193
    nanosec: 510000000
  control_time:
    sec: 0
    nanosec: 0
  steering_tire_angle: -0.40240031480789185
  steering_tire_rotation_rate: 0.01684199646115303
  is_defined_steering_tire_rotation_rate: false
longitudinal:
  stamp:
    sec: 193
    nanosec: 510000000
  control_time:
    sec: 0
    nanosec: 0
  velocity: 2.222223997116089
  acceleration: 0.030133437365293503
  jerk: 0.0
  is_defined_acceleration: false
  is_defined_jerk: false
---
stamp:
  sec: 193
  nanosec: 670000000
control_time:
  sec: 0
  nanosec: 0
lateral:
  stamp:
    sec: 193
    nanosec: 670000000
  control_time:
    sec: 0
    nanosec: 0
  steering_tire_angle: -0.39833763241767883
  steering_tire_rotation_rate: 0.05708453059196472
  is_defined_steering_tire_rotation_rate: false
longitudinal:
  stamp:
    sec: 193
    nanosec: 670000000
  control_time:
    sec: 0
    nanosec: 0
  velocity: 2.2222235202789307
  acceleration: 0.02767644077539444
  jerk: 0.0
  is_defined_acceleration: false
  is_defined_jerk: false
---
stamp:
  sec: 193
  nanosec: 810000000
control_time:
  sec: 0
  nanosec: 0
lateral:
  stamp:
    sec: 193
    nanosec: 810000000
  control_time:
    sec: 0
    nanosec: 0
  steering_tire_angle: -0.4050883650779724
  steering_tire_rotation_rate: 0.041575126349925995
  is_defined_steering_tire_rotation_rate: false
longitudinal:
  stamp:
    sec: 193
    nanosec: 810000000
  control_time:
    sec: 0
    nanosec: 0
  velocity: 2.222223997116089
  acceleration: 0.0253545381128788
  jerk: 0.0
  is_defined_acceleration: false
  is_defined_jerk: false
---
stamp:
  sec: 193
  nanosec: 970000000
control_time:
  sec: 0
  nanosec: 0
lateral:
  stamp:
    sec: 193
    nanosec: 970000000
  control_time:
    sec: 0
    nanosec: 0
  steering_tire_angle: -0.4150976240634918
  steering_tire_rotation_rate: 0.00010547468264121562
  is_defined_steering_tire_rotation_rate: false
longitudinal:
  stamp:
    sec: 193
    nanosec: 970000000
  control_time:
    sec: 0
    nanosec: 0
  velocity: 2.2222235202789307
  acceleration: 0.023220809176564217
  jerk: 0.0
  is_defined_acceleration: false
  is_defined_jerk: false
---
stamp:
  sec: 194
  nanosec: 110000000
control_time:
  sec: 0
  nanosec: 0
lateral:
  stamp:
    sec: 194
    nanosec: 110000000
  control_time:
    sec: 0
    nanosec: 0
  steering_tire_angle: -0.42729854583740234
  steering_tire_rotation_rate: -0.047226253896951675
  is_defined_steering_tire_rotation_rate: false
longitudinal:
  stamp:
    sec: 194
    nanosec: 110000000
  control_time:
    sec: 0
    nanosec: 0
  velocity: 2.222224235534668
  acceleration: 0.021275697275996208
  jerk: 0.0
  is_defined_acceleration: false
  is_defined_jerk: false
---
stamp:
  sec: 194
  nanosec: 270000000
control_time:
  sec: 0
  nanosec: 0
lateral:
  stamp:
    sec: 194
    nanosec: 270000000
  control_time:
    sec: 0
    nanosec: 0
  steering_tire_angle: -0.4054374098777771
  steering_tire_rotation_rate: 0.017372753471136093
  is_defined_steering_tire_rotation_rate: false
longitudinal:
  stamp:
    sec: 194
    nanosec: 270000000
  control_time:
    sec: 0
    nanosec: 0
  velocity: 2.2222237586975098
  acceleration: 0.01953541859984398
  jerk: 0.0
  is_defined_acceleration: false
  is_defined_jerk: false
---
stamp:
  sec: 194
  nanosec: 410000000
control_time:
  sec: 0
  nanosec: 0
lateral:
  stamp:
    sec: 194
    nanosec: 410000000
  control_time:
    sec: 0
    nanosec: 0
  steering_tire_angle: -0.3853900730609894
  steering_tire_rotation_rate: 0.0786992534995079
  is_defined_steering_tire_rotation_rate: false
longitudinal:
  stamp:
    sec: 194
    nanosec: 410000000
  control_time:
    sec: 0
    nanosec: 0
  velocity: 2.222223997116089
  acceleration: 0.018020469695329666
  jerk: 0.0
  is_defined_acceleration: false
  is_defined_jerk: false
---
stamp:
  sec: 194
  nanosec: 570000000
control_time:
  sec: 0
  nanosec: 0
lateral:
  stamp:
    sec: 194
    nanosec: 570000000
  control_time:
    sec: 0
    nanosec: 0
  steering_tire_angle: -0.37796464562416077
  steering_tire_rotation_rate: 0.0874001681804657
  is_defined_steering_tire_rotation_rate: false
longitudinal:
  stamp:
    sec: 194
    nanosec: 570000000
  control_time:
    sec: 0
    nanosec: 0
  velocity: 2.2222237586975098
  acceleration: 0.016713961958885193
  jerk: 0.0
  is_defined_acceleration: false
  is_defined_jerk: false
---
stamp:
  sec: 194
  nanosec: 710000000
control_time:
  sec: 0
  nanosec: 0
lateral:
  stamp:
    sec: 194
    nanosec: 710000000
  control_time:
    sec: 0
    nanosec: 0
  steering_tire_angle: -0.350344181060791
  steering_tire_rotation_rate: 0.11290550231933594
  is_defined_steering_tire_rotation_rate: false
longitudinal:
  stamp:
    sec: 194
    nanosec: 710000000
  control_time:
    sec: 0
    nanosec: 0
  velocity: 2.222224473953247
  acceleration: 0.015650492161512375
  jerk: 0.0
  is_defined_acceleration: false
  is_defined_jerk: false
---
stamp:
  sec: 194
  nanosec: 870000000
control_time:
  sec: 0
  nanosec: 0
lateral:
  stamp:
    sec: 194
    nanosec: 870000000
  control_time:
    sec: 0
    nanosec: 0
  steering_tire_angle: -0.31325438618659973
  steering_tire_rotation_rate: 0.17391611635684967
  is_defined_steering_tire_rotation_rate: false
longitudinal:
  stamp:
    sec: 194
    nanosec: 870000000
  control_time:
    sec: 0
    nanosec: 0
  velocity: 2.222223997116089
  acceleration: 0.014791809022426605
  jerk: 0.0
  is_defined_acceleration: false
  is_defined_jerk: false
---
stamp:
  sec: 195
  nanosec: 10000000
control_time:
  sec: 0
  nanosec: 0
lateral:
  stamp:
    sec: 195
    nanosec: 10000000
  control_time:
    sec: 0
    nanosec: 0
